[
  {
    "name": "Hotel Yak & Yeti",
    "description": "A luxury heritage hotel in the heart of Kathmandu, offering traditional Nepalese hospitality with modern amenities. Located near major tourist attractions and perfect for exploring the cultural sites of the valley.",
    "full_address": "Durbar Marg, Kathmandu-1",
    "city": "Kathmandu",
    "accommodation_category": "hotel",
    "longitude": 85.324,
    "latitude": 27.7172,
    "cost_per_night": 8500,
    "images": ["hotel_7.webp"]
  },
  {
    "name": "Kathmandu Guest House",
    "description": "Historic guest house in Thamel, the tourist hub of Kathmandu. Famous for being one of the first hotels to cater to international travelers, offering comfortable rooms and authentic Nepali cuisine.",
    "full_address": "Thamel, Kathmandu-11",
    "city": "Kathmandu",
    "accommodation_category": "hotel",
    "longitude": 85.3146,
    "latitude": 27.7147,
    "cost_per_night": 4500,
    "images": ["hotel_4.webp"]
  },
  {
    "name": "Himalayan Hostel Kathmandu",
    "description": "Budget-friendly hostel perfect for backpackers exploring the Kathmandu Valley. Offers dormitory and private rooms with shared facilities, common areas for socializing, and travel assistance.",
    "full_address": "Jyatha, Thamel, Kathmandu-08",
    "city": "Kathmandu",
    "accommodation_category": "hostel",
    "longitude": 85.3125,
    "latitude": 27.7135,
    "cost_per_night": 1200,
    "images": ["hostel_7.webp"]
  },
  {
    "name": "Swayambhu Peace Zone Homestay",
    "description": "Traditional Newari homestay near Swayambhunath Temple, offering authentic cultural experiences with local families. Includes home-cooked meals and cultural activities.",
    "full_address": "Swayambhu, Kathmandu-13",
    "city": "Kathmandu",
    "accommodation_category": "homestay",
    "longitude": 85.2896,
    "latitude": 27.7151,
    "cost_per_night": 2500,
    "images": ["homestay_6.webp"]
  },
  {
    "name": "Boudha Garden Resort",
    "description": "Peaceful resort near Boudhanath Stupa, combining modern comfort with Buddhist spirituality. Features garden views, meditation spaces, and easy access to the monastery complex.",
    "full_address": "Boudha, Kathmandu-11",
    "city": "Kathmandu",
    "accommodation_category": "resort",
    "longitude": 85.3615,
    "latitude": 27.7215,
    "cost_per_night": 6800,
    "images": ["resort_3.webp", "resort_8.webp", "resort_3.webp"]
  },
  {
    "name": "Heritage Hotel Patan",
    "description": "Boutique hotel in the heart of Lalitpur, showcasing traditional Newari architecture. Walking distance to Patan Durbar Square and perfect for exploring the artistic heritage of the city.",
    "full_address": "Mangal Bazaar, Lalitpur-07",
    "city": "Lalitpur",
    "accommodation_category": "hotel",
    "longitude": 85.3206,
    "latitude": 27.6733,
    "cost_per_night": 5500,
    "images": ["hotel_7.webp", "hotel_9.webp", "hotel_3.webp"]
  },
  {
    "name": "Patan Community Homestay",
    "description": "Authentic Newari homestay experience in the ancient city of Patan. Participate in traditional crafts, enjoy local cuisine, and learn about the rich cultural heritage of the Newar community.",
    "full_address": "Sundhara, Lalitpur-07",
    "city": "Lalitpur",
    "accommodation_category": "homestay",
    "longitude": 85.3156,
    "latitude": 27.6689,
    "cost_per_night": 3200,
    "images": ["homestay_7.webp", "homestay_3.webp", "homestay_1.webp"]
  },
  {
    "name": "Golden Temple Lodge",
    "description": "Peaceful lodge near the Golden Temple (Hiranya Varna Mahavihar), offering spiritual accommodation with meditation facilities and vegetarian cuisine.",
    "full_address": "Kwa Bahal, Lalitpur-07",
    "city": "Lalitpur",
    "accommodation_category": "hotel",
    "longitude": 85.3189,
    "latitude": 27.6742,
    "cost_per_night": 4200,
    "images": ["hotel_1.webp", "hotel_9.webp", "hotel_1.webp"]
  },
  {
    "name": "Lalitpur Backpackers Inn",
    "description": "Modern hostel in Lalitpur with clean dormitories, private rooms, and rooftop views of the Himalayan range. Great for budget travelers exploring the Kathmandu Valley.",
    "full_address": "Jawalakhel, Lalitpur-07",
    "city": "Lalitpur",
    "accommodation_category": "hostel",
    "longitude": 85.3089,
    "latitude": 27.6667,
    "cost_per_night": 1800,
    "images": ["hostel_7.webp", "hostel_9.webp", "hostel_8.webp"]
  },
  {
    "name": "Bhaktapur Heritage Hotel",
    "description": "Traditional brick and wood hotel in the medieval city of Bhaktapur. Experience the authentic atmosphere of this UNESCO World Heritage site with easy access to temples and squares.",
    "full_address": "Durbar Square, Bhaktapur-02",
    "city": "Bhaktapur",
    "accommodation_category": "hotel",
    "longitude": 85.4298,
    "latitude": 27.6722,
    "cost_per_night": 4800,
    "images": ["hotel_7.webp", "hotel_3.webp", "hotel_2.webp"]
  },
  {
    "name": "Pottery Square Lodge",
    "description": "Unique accommodation in Bhaktapur where guests can participate in traditional pottery making. Located in the famous Pottery Square with authentic cultural experiences.",
    "full_address": "Pottery Square, Bhaktapur-02",
    "city": "Bhaktapur",
    "accommodation_category": "homestay",
    "longitude": 85.4276,
    "latitude": 27.6689,
    "cost_per_night": 2800,
    "images": ["homestay_7.webp", "homestay_5.webp", "homestay_2.webp"]
  },
  {
    "name": "Nyatapola View Hotel",
    "description": "Charming hotel with views of the famous five-story Nyatapola Temple. Offers comfortable rooms and rooftop dining with panoramic views of Bhaktapur's ancient architecture.",
    "full_address": "Taumadhi Square, Bhaktapur-02",
    "city": "Bhaktapur",
    "accommodation_category": "hotel",
    "longitude": 85.4287,
    "latitude": 27.6712,
    "cost_per_night": 3800,
    "images": ["hotel_4.webp"]
  },
  {
    "name": "Bhaktapur Guest House",
    "description": "Traditional guest house offering budget-friendly accommodation in the heart of Bhaktapur. Family-run establishment with home-cooked meals and cultural insights.",
    "full_address": "Dattatreya Square, Bhaktapur-02",
    "city": "Bhaktapur",
    "accommodation_category": "other",
    "longitude": 85.4323,
    "latitude": 27.6734,
    "cost_per_night": 2200,
    "images": ["other_7.webp", "other_2.webp"]
  },
  {
    "name": "Lakeside Resort Pokhara",
    "description": "Luxury resort on the shores of Phewa Lake with stunning views of the Annapurna range. Features spa services, multiple dining options, and water sports facilities.",
    "full_address": "Lakeside, Pokhara-11",
    "city": "Pokhara",
    "accommodation_category": "resort",
    "longitude": 83.9591,
    "latitude": 28.2095,
    "cost_per_night": 9500,
    "images": ["resort_2.webp", "resort_4.webp", "resort_5.webp"]
  },
  {
    "name": "Himalayan Hotel Pokhara",
    "description": "Mid-range hotel in the heart of Lakeside with mountain views and easy access to restaurants, shops, and boat rentals. Perfect base for exploring Pokhara's attractions.",
    "full_address": "Lakeside Road, Pokhara-11",
    "city": "Pokhara",
    "accommodation_category": "hotel",
    "longitude": 83.961,
    "latitude": 28.2089,
    "cost_per_night": 4500,
    "images": ["hotel_4.webp", "hotel_8.webp", "hotel_1.webp"]
  },
  {
    "name": "Sarangkot Sunrise Lodge",
    "description": "Mountain lodge at Sarangkot viewpoint offering spectacular sunrise views over the Himalayas. Popular with trekkers and adventure enthusiasts, includes paragliding packages.",
    "full_address": "Sarangkot, Pokhara-11",
    "city": "Pokhara",
    "accommodation_category": "hotel",
    "longitude": 83.9365,
    "latitude": 28.2442,
    "cost_per_night": 3800,
    "images": ["hotel_7.webp", "hotel_9.webp", "hotel_2.webp"]
  },
  {
    "name": "Pokhara Peace Hostel",
    "description": "Vibrant hostel in Lakeside catering to backpackers and solo travelers. Features common areas, organized activities, and assistance with trekking permits and adventure sports.",
    "full_address": "Lakeside-6, Pokhara-11",
    "city": "Pokhara",
    "accommodation_category": "hostel",
    "longitude": 83.9578,
    "latitude": 28.2067,
    "cost_per_night": 1500,
    "images": ["hostel_10.webp", "hostel_1.webp", "hostel_2.webp"]
  },
  {
    "name": "Gurung Heritage Homestay",
    "description": "Traditional Gurung homestay in the hills above Pokhara. Experience authentic mountain culture, participate in farming activities, and enjoy panoramic valley views.",
    "full_address": "Dhampus Village, Pokhara-11",
    "city": "Pokhara",
    "accommodation_category": "homestay",
    "longitude": 83.9123,
    "latitude": 28.2678,
    "cost_per_night": 2800,
    "images": ["homestay_6.webp"]
  },
  {
    "name": "World Peace Pagoda Lodge",
    "description": "Peaceful lodge near the World Peace Pagoda with meditation facilities and Buddhist teachings. Offers simple accommodation with spiritual focus and mountain views.",
    "full_address": "Pumdi Bhumdi, Pokhara-11",
    "city": "Pokhara",
    "accommodation_category": "other",
    "longitude": 83.9445,
    "latitude": 28.1945,
    "cost_per_night": 2500,
    "images": ["other_8.webp"]
  },
  {
    "name": "Chitwan Jungle Resort",
    "description": "Luxury eco-resort in the heart of Chitwan National Park offering safari experiences, elephant rides, and jungle walks. All-inclusive packages with guided wildlife tours.",
    "full_address": "Sauraha, Bharatpur-10",
    "city": "Bharatpur",
    "accommodation_category": "resort",
    "longitude": 84.4958,
    "latitude": 27.5794,
    "cost_per_night": 8500,
    "images": ["resort_6.webp"]
  },
  {
    "name": "Bharatpur Garden Hotel",
    "description": "Modern hotel in Bharatpur city center with easy access to Chitwan National Park. Features comfortable rooms, restaurant, and tour arrangements for wildlife activities.",
    "full_address": "Narayanghat-Mugling Highway, Bharatpur-10",
    "city": "Bharatpur",
    "accommodation_category": "hotel",
    "longitude": 84.4371,
    "latitude": 27.6667,
    "cost_per_night": 3500,
    "images": ["hotel_9.webp", "hotel_2.webp", "hotel_8.webp"]
  },
  {
    "name": "Tharu Cultural Lodge",
    "description": "Traditional Tharu homestay experience with authentic cultural programs, folk dances, and local cuisine. Learn about the indigenous Tharu community and their customs.",
    "full_address": "Bachhauli, Bharatpur-10",
    "city": "Bharatpur",
    "accommodation_category": "homestay",
    "longitude": 84.5123,
    "latitude": 27.5856,
    "cost_per_night": 2200,
    "images": ["homestay_1.webp", "homestay_5.webp", "homestay_4.webp"]
  },
  {
    "name": "Rapti River Lodge",
    "description": "Riverside lodge offering boat trips on the Rapti River and wildlife spotting opportunities. Features comfortable accommodation with nature-focused activities.",
    "full_address": "Rapti River Bank, Bharatpur-10",
    "city": "Bharatpur",
    "accommodation_category": "hotel",
    "longitude": 84.4789,
    "latitude": 27.5923,
    "cost_per_night": 4200,
    "images": ["hotel_5.webp", "hotel_8.webp", "hotel_3.webp"]
  },
  {
    "name": "Chitwan Backpackers Hostel",
    "description": "Budget-friendly hostel near Chitwan National Park with dormitory accommodation and safari packages. Popular among young travelers and wildlife enthusiasts.",
    "full_address": "Sauraha Main Road, Bharatpur-10",
    "city": "Bharatpur",
    "accommodation_category": "hostel",
    "longitude": 84.4934,
    "latitude": 27.5812,
    "cost_per_night": 1800,
    "images": ["hostel_9.webp", "hostel_3.webp"]
  },
  {
    "name": "Sauraha Elephant Lodge",
    "description": "Unique lodge offering elephant interaction experiences and jungle safaris. Family-friendly accommodation with educational programs about wildlife conservation.",
    "full_address": "Elephant Breeding Center Road, Bharatpur-10",
    "city": "Bharatpur",
    "accommodation_category": "other",
    "longitude": 84.4923,
    "latitude": 27.5834,
    "cost_per_night": 3800,
    "images": ["other_1.webp"]
  },
  {
    "name": "Riverside Resort Ratnanagar",
    "description": "Peaceful resort along the Rapti River with excellent bird watching opportunities and canoe trips. Features comfortable rooms and outdoor dining areas.",
    "full_address": "Rapti Riverside, Ratnanagar-10",
    "city": "Ratnanagar",
    "accommodation_category": "resort",
    "longitude": 84.4245,
    "latitude": 27.6234,
    "cost_per_night": 5500,
    "images": ["resort_4.webp", "resort_2.webp", "resort_5.webp"]
  },
  {
    "name": "Tharu Village Homestay",
    "description": "Authentic Tharu village homestay experience with traditional mud houses, cultural shows, and local cuisine. Participate in farming activities and learn about Tharu traditions.",
    "full_address": "Tharu Village, Ratnanagar-10",
    "city": "Ratnanagar",
    "accommodation_category": "homestay",
    "longitude": 84.4512,
    "latitude": 27.6189,
    "cost_per_night": 2500,
    "images": ["homestay_2.webp", "homestay_6.webp", "homestay_6.webp"]
  },
  {
    "name": "Jungle Gateway Lodge",
    "description": "Eco-friendly lodge at the entrance of Chitwan National Park with wildlife viewing opportunities and nature walks. Sustainable tourism practices and local community involvement.",
    "full_address": "Park Entrance, Ratnanagar-10",
    "city": "Ratnanagar",
    "accommodation_category": "hotel",
    "longitude": 84.4334,
    "latitude": 27.6156,
    "cost_per_night": 4200,
    "images": ["hotel_1.webp", "hotel_7.webp"]
  },
  {
    "name": "Ratnanagar Budget Inn",
    "description": "Simple and clean budget accommodation for travelers exploring Chitwan. Basic facilities with friendly service and tour arrangements for national park visits.",
    "full_address": "Main Road, Ratnanagar-10",
    "city": "Ratnanagar",
    "accommodation_category": "motel",
    "longitude": 84.4298,
    "latitude": 27.6234,
    "cost_per_night": 1500,
    "images": ["motel_7.webp", "motel_10.webp"]
  },
  {
    "name": "Lumbini Sacred Garden Resort",
    "description": "Peaceful resort near the birthplace of Buddha with meditation facilities and spiritual programs. Beautiful gardens and proximity to all major Buddhist monasteries.",
    "full_address": "Lumbini Development Zone, Lumbini-05",
    "city": "Lumbini",
    "accommodation_category": "resort",
    "longitude": 83.2767,
    "latitude": 27.4833,
    "cost_per_night": 6500,
    "images": ["resort_4.webp", "resort_2.webp", "resort_6.webp"]
  },
  {
    "name": "Buddha Maya Hotel",
    "description": "Heritage hotel near Maya Devi Temple with traditional architecture and spiritual atmosphere. Offers comfortable rooms and vegetarian dining options.",
    "full_address": "Maya Devi Temple Road, Lumbini-05",
    "city": "Lumbini",
    "accommodation_category": "hotel",
    "longitude": 83.2756,
    "latitude": 27.4844,
    "cost_per_night": 4800,
    "images": ["hotel_5.webp", "hotel_9.webp", "hotel_9.webp"]
  },
  {
    "name": "Pilgrims Rest Guesthouse",
    "description": "Simple guesthouse catering to pilgrims and spiritual seekers. Basic accommodation with meditation rooms and library focusing on Buddhist teachings.",
    "full_address": "Monastic Zone, Lumbini-05",
    "city": "Lumbini",
    "accommodation_category": "other",
    "longitude": 83.2789,
    "latitude": 27.4823,
    "cost_per_night": 1800,
    "images": ["other_2.webp", "other_6.webp", "other_8.webp"]
  },
  {
    "name": "Lumbini International Hostel",
    "description": "Modern hostel welcoming international pilgrims and backpackers. Clean dormitories, common areas for cultural exchange, and bicycle rentals for exploring the area.",
    "full_address": "Lumbini Bazaar, Lumbini-05",
    "city": "Lumbini",
    "accommodation_category": "hostel",
    "longitude": 83.2734,
    "latitude": 27.4856,
    "cost_per_night": 1200,
    "images": ["hostel_1.webp", "hostel_7.webp", "hostel_2.webp"]
  },
  {
    "name": "Bandipur Heritage Lodge",
    "description": "Traditional Newari architecture lodge in the hilltop town of Bandipur. Stunning mountain views and easy access to hiking trails and cultural sites.",
    "full_address": "Bandipur Bazaar, Bandipur-09",
    "city": "Bandipur",
    "accommodation_category": "hotel",
    "longitude": 84.4095,
    "latitude": 27.935,
    "cost_per_night": 3500,
    "images": ["hotel_9.webp", "hotel_3.webp"]
  },
  {
    "name": "Himalayan Panorama Resort",
    "description": "Mountain resort with panoramic views of the Himalayas including Dhaulagiri, Annapurna, and Manaslu ranges. Perfect for mountain photography and relaxation.",
    "full_address": "Tundikhel, Bandipur-09",
    "city": "Bandipur",
    "accommodation_category": "resort",
    "longitude": 84.4123,
    "latitude": 27.9334,
    "cost_per_night": 5800,
    "images": ["resort_1.webp"]
  },
  {
    "name": "Bandipur Community Homestay",
    "description": "Traditional homestay with local Magar families, offering authentic cultural experiences and home-cooked meals. Participate in daily village life and farming activities.",
    "full_address": "Khadga Devi Temple Area, Bandipur-09",
    "city": "Bandipur",
    "accommodation_category": "homestay",
    "longitude": 84.4078,
    "latitude": 27.9367,
    "cost_per_night": 2200,
    "images": ["homestay_2.webp", "homestay_5.webp"]
  },
  {
    "name": "Mountain View Guesthouse",
    "description": "Simple guesthouse with spectacular mountain views and peaceful atmosphere. Basic but clean accommodation perfect for travelers seeking tranquility.",
    "full_address": "Bandipur Main Street, Bandipur-09",
    "city": "Bandipur",
    "accommodation_category": "other",
    "longitude": 84.4089,
    "latitude": 27.9345,
    "cost_per_night": 1800,
    "images": ["other_6.webp"]
  },
  {
    "name": "Gorkha Palace Hotel",
    "description": "Historic hotel near the ancestral palace of the Shah dynasty. Offers comfortable accommodation with views of the Gorkha Durbar and surrounding hills.",
    "full_address": "Gorkha Durbar Road, Gorkha-01",
    "city": "Gorkha",
    "accommodation_category": "hotel",
    "longitude": 84.6298,
    "latitude": 28.005,
    "cost_per_night": 4200,
    "images": ["hotel_1.webp", "hotel_8.webp", "hotel_4.webp"]
  },
  {
    "name": "Gorkha Heritage Homestay",
    "description": "Traditional homestay with Gurung families, offering insights into local culture and history. Participate in cultural activities and enjoy traditional Nepali cuisine.",
    "full_address": "Gorkha Village, Gorkha-01",
    "city": "Gorkha",
    "accommodation_category": "homestay",
    "longitude": 84.6278,
    "latitude": 28.0034,
    "cost_per_night": 2800,
    "images": ["homestay_2.webp"]
  },
  {
    "name": "Upallo Durbar Lodge",
    "description": "Mountain lodge with hiking access to Gorkha Durbar and surrounding peaks. Simple accommodation with stunning views and peaceful environment.",
    "full_address": "Upallo Durbar Trail, Gorkha-01",
    "city": "Gorkha",
    "accommodation_category": "other",
    "longitude": 84.6323,
    "latitude": 28.0089,
    "cost_per_night": 2500,
    "images": ["other_1.webp", "other_8.webp", "other_6.webp"]
  },
  {
    "name": "Tansen Darbar Hotel",
    "description": "Heritage hotel in the historic hill town of Tansen with views of the Himalayas. Close to Rani Mahal and traditional bazaar, offering cultural immersion.",
    "full_address": "Sitalpati, Tansen-03",
    "city": "Tansen",
    "accommodation_category": "hotel",
    "longitude": 83.5461,
    "latitude": 27.8667,
    "cost_per_night": 3800,
    "images": ["hotel_9.webp"]
  },
  {
    "name": "Palpa Heritage Resort",
    "description": "Boutique resort showcasing traditional Palpa architecture with modern amenities. Features terraced gardens and panoramic mountain views.",
    "full_address": "Rani Mahal Road, Tansen-03",
    "city": "Tansen",
    "accommodation_category": "resort",
    "longitude": 83.5434,
    "latitude": 27.8689,
    "cost_per_night": 5500,
    "images": ["resort_1.webp", "resort_8.webp"]
  },
  {
    "name": "Tansen Bazaar Homestay",
    "description": "Traditional homestay in the heart of Tansen bazaar, offering authentic local experiences and traditional Newari-style accommodation.",
    "full_address": "Tansen Bazaar, Tansen-03",
    "city": "Tansen",
    "accommodation_category": "homestay",
    "longitude": 83.5445,
    "latitude": 27.8656,
    "cost_per_night": 2500,
    "images": ["homestay_8.webp", "homestay_3.webp"]
  },
  {
    "name": "Srinagar Hill Lodge",
    "description": "Peaceful lodge on Srinagar Hill with sunrise and sunset views over the Himalayas. Perfect for trekkers and photographers seeking mountain vistas.",
    "full_address": "Srinagar Hill, Tansen-03",
    "city": "Tansen",
    "accommodation_category": "other",
    "longitude": 83.5523,
    "latitude": 27.8723,
    "cost_per_night": 3200,
    "images": ["other_1.webp"]
  },
  {
    "name": "Baglung Mountain Hotel",
    "description": "Modern hotel in Baglung with mountain views and easy access to hiking trails. Comfortable accommodation for trekkers heading to Annapurna region.",
    "full_address": "Baglung Bazaar, Baglung-01",
    "city": "Baglung",
    "accommodation_category": "hotel",
    "longitude": 83.595,
    "latitude": 28.2669,
    "cost_per_night": 3200,
    "images": ["hotel_7.webp", "hotel_4.webp", "hotel_5.webp"]
  },
  {
    "name": "Kalika Temple Lodge",
    "description": "Simple lodge near the famous Kalika Temple with spiritual atmosphere and mountain views. Basic accommodation for pilgrims and trekkers.",
    "full_address": "Kalika Temple Area, Baglung-01",
    "city": "Baglung",
    "accommodation_category": "other",
    "longitude": 83.5923,
    "latitude": 28.2678,
    "cost_per_night": 2200,
    "images": ["other_3.webp"]
  },
  {
    "name": "Baglung Riverside Resort",
    "description": "Riverside resort along the Kaligandaki River with adventure activities and natural beauty. Features river views and access to suspension bridge.",
    "full_address": "Kaligandaki Riverside, Baglung-01",
    "city": "Baglung",
    "accommodation_category": "resort",
    "longitude": 83.5867,
    "latitude": 28.2634,
    "cost_per_night": 4800,
    "images": ["resort_1.webp"]
  },
  {
    "name": "Baglung Trekkers Hostel",
    "description": "Budget hostel catering to trekkers and adventure travelers. Clean dormitories and private rooms with trekking information and gear rental services.",
    "full_address": "Trekkers Street, Baglung-01",
    "city": "Baglung",
    "accommodation_category": "hostel",
    "longitude": 83.5934,
    "latitude": 28.2656,
    "cost_per_night": 1500,
    "images": ["hostel_2.webp", "hostel_7.webp"]
  },
  {
    "name": "Kusma Adventure Lodge",
    "description": "Thrilling lodge near the famous Kusma bungee jumping site. Offers accommodation for adventure seekers with packages including bungee jumping and swing activities.",
    "full_address": "Suspension Bridge Area, Kusma-08",
    "city": "Kusma",
    "accommodation_category": "hotel",
    "longitude": 83.6923,
    "latitude": 28.2156,
    "cost_per_night": 4500,
    "images": ["hotel_9.webp", "hotel_3.webp"]
  },
  {
    "name": "Gyadi Bridge Resort",
    "description": "Unique resort with views of the world's highest suspension bridge. Offers adventure packages and comfortable accommodation for thrill-seekers.",
    "full_address": "Gyadi Bridge Viewpoint, Kusma-08",
    "city": "Kusma",
    "accommodation_category": "resort",
    "longitude": 83.6945,
    "latitude": 28.2134,
    "cost_per_night": 5800,
    "images": ["resort_6.webp"]
  },
  {
    "name": "Kusma Riverside Camp",
    "description": "Adventure camping site along the river with tents and basic facilities. Perfect for adventure enthusiasts seeking outdoor experiences.",
    "full_address": "Modi River Bank, Kusma-08",
    "city": "Kusma",
    "accommodation_category": "other",
    "longitude": 83.6889,
    "latitude": 28.2178,
    "cost_per_night": 2500,
    "images": ["other_4.webp", "other_8.webp", "other_3.webp"]
  },
  {
    "name": "Om's Home",
    "description": "A cozy lodge with mountain views, located near the airport and perfect for pilgrims heading to Muktinath.",
    "full_address": "Jomsom Bazaar, Mustang",
    "city": "Jomsom",
    "accommodation_category": "hotel",
    "longitude": 83.7957,
    "latitude": 28.7784,
    "cost_per_night": 3000,
    "images": ["hotel_9.webp", "hotel_5.webp", "hotel_2.webp"]
  },
  {
    "name": "Hotel Pride and Spa",
    "description": "Comfortable rooms with traditional hospitality and a spa, ideal for relaxing after mountain flights.",
    "full_address": "Main Street, Jomsom",
    "city": "Jomsom",
    "accommodation_category": "resort",
    "longitude": 83.7935,
    "latitude": 28.775,
    "cost_per_night": 5000,
    "images": ["resort_1.webp", "resort_5.webp", "resort_9.webp"]
  },
  {
    "name": "Nilgiri View Homestay",
    "description": "Family-run homestay offering authentic Thakali meals and stunning views of the Nilgiri peaks.",
    "full_address": "Upper Jomsom, Mustang",
    "city": "Jomsom",
    "accommodation_category": "homestay",
    "longitude": 83.7981,
    "latitude": 28.7801,
    "cost_per_night": 1800,
    "images": ["homestay_1.webp", "homestay_1.webp", "homestay_9.webp"]
  },
  {
    "name": "Dhulikhel Mountain Resort",
    "description": "Luxury resort with panoramic views of the Himalayas, perfect for sunrise watching and peaceful getaways.",
    "full_address": "Resort Area, Dhulikhel",
    "city": "Dhulikhel",
    "accommodation_category": "resort",
    "longitude": 85.5479,
    "latitude": 27.6206,
    "cost_per_night": 6500,
    "images": ["resort_6.webp"]
  },
  {
    "name": "Namobuddha Retreat Center",
    "description": "Quiet retreat center close to Namobuddha Monastery, ideal for spiritual travelers and meditation.",
    "full_address": "Namobuddha, Kavre",
    "city": "Dhulikhel",
    "accommodation_category": "other",
    "longitude": 85.6374,
    "latitude": 27.5975,
    "cost_per_night": 3500,
    "images": ["other_4.webp"]
  },
  {
    "name": "Peaceful Valley Homestay",
    "description": "Charming homestay nestled in the hills of Dhulikhel, offering local meals and village walks.",
    "full_address": "Ward No. 6, Dhulikhel",
    "city": "Dhulikhel",
    "accommodation_category": "homestay",
    "longitude": 85.5522,
    "latitude": 27.6251,
    "cost_per_night": 1500,
    "images": ["homestay_6.webp", "homestay_1.webp", "homestay_9.webp"]
  },
  {
    "name": "Hotel Himalayan Sunrise",
    "description": "Modern hotel with rooftop dining and great access to the Dhulikhel View Tower and cycling routes.",
    "full_address": "Near Bus Park, Dhulikhel",
    "city": "Dhulikhel",
    "accommodation_category": "hotel",
    "longitude": 85.5488,
    "latitude": 27.6213,
    "cost_per_night": 4200,
    "images": ["hotel_7.webp"]
  },
  {
    "name": "Hotel Seti Riverside",
    "description": "Hotel with scenic views of the Seti Gandaki Gorge, ideal for nature lovers and quiet stays.",
    "full_address": "Damauli Bazaar, Tanahun",
    "city": "Damauli",
    "accommodation_category": "hotel",
    "longitude": 84.2579,
    "latitude": 27.971,
    "cost_per_night": 2500,
    "images": ["hotel_9.webp", "hotel_8.webp"]
  },
  {
    "name": "Green Valley Homestay",
    "description": "Traditional homestay offering nature walks and local cuisine in a peaceful riverside setting.",
    "full_address": "Bhadgaun, Damauli",
    "city": "Damauli",
    "accommodation_category": "homestay",
    "longitude": 84.2645,
    "latitude": 27.969,
    "cost_per_night": 1200,
    "images": ["homestay_2.webp", "homestay_5.webp"]
  },
  {
    "name": "Seti Eco Resort",
    "description": "Eco-friendly resort surrounded by lush forest, great for bird watching and relaxation.",
    "full_address": "Seti River Bank, Damauli",
    "city": "Damauli",
    "accommodation_category": "resort",
    "longitude": 84.2603,
    "latitude": 27.9668,
    "cost_per_night": 4000,
    "images": ["resort_4.webp", "resort_5.webp"]
  },
  {
    "name": "Beni Riverside Resort",
    "description": "Comfortable resort located near the Kali Gandaki river, perfect for trekkers heading to Mustang.",
    "full_address": "Beni Bazaar, Myagdi",
    "city": "Beni",
    "accommodation_category": "resort",
    "longitude": 83.5782,
    "latitude": 28.3447,
    "cost_per_night": 4800,
    "images": ["resort_2.webp", "resort_2.webp", "resort_3.webp"]
  },
  {
    "name": "Tatopani Trekker\u2019s Inn",
    "description": "Simple lodge catering to trekkers visiting the nearby hot springs and Mustang routes.",
    "full_address": "Tatopani, Beni",
    "city": "Beni",
    "accommodation_category": "hostel",
    "longitude": 83.6111,
    "latitude": 28.3867,
    "cost_per_night": 1500,
    "images": ["hostel_8.webp", "hostel_8.webp"]
  },
  {
    "name": "Myagdi Homestay",
    "description": "Friendly family-run homestay offering local meals and hot spring experiences.",
    "full_address": "Upper Beni, Myagdi",
    "city": "Beni",
    "accommodation_category": "homestay",
    "longitude": 83.573,
    "latitude": 28.35,
    "cost_per_night": 1300,
    "images": ["homestay_10.webp", "homestay_9.webp", "homestay_10.webp"]
  },
  {
    "name": "Hotel Nans",
    "description": "Modern hotel near Butwal\u2019s city center, ideal for business travelers and tourists.",
    "full_address": "Traffic Chowk, Butwal",
    "city": "Butwal",
    "accommodation_category": "hotel",
    "longitude": 83.4578,
    "latitude": 27.7004,
    "cost_per_night": 3200,
    "images": ["hotel_2.webp"]
  },
  {
    "name": "Manimukunda View Resort",
    "description": "Hilltop resort offering panoramic views of Butwal and Manimukunda Park.",
    "full_address": "Deepnagar, Butwal",
    "city": "Butwal",
    "accommodation_category": "resort",
    "longitude": 83.4625,
    "latitude": 27.6963,
    "cost_per_night": 5200,
    "images": ["resort_9.webp"]
  },
  {
    "name": "Butwal Backpackers Hostel",
    "description": "Budget-friendly hostel for solo travelers and students, close to local sightseeing areas.",
    "full_address": "Golpark, Butwal",
    "city": "Butwal",
    "accommodation_category": "hostel",
    "longitude": 83.46,
    "latitude": 27.6981,
    "cost_per_night": 1000,
    "images": ["hostel_1.webp", "hostel_7.webp"]
  },
  {
    "name": "Hotel Siddhartha",
    "description": "One of the top-rated hotels in Nepalgunj with a large garden and fine dining.",
    "full_address": "Surkhet Road, Nepalgunj",
    "city": "Nepalgunj",
    "accommodation_category": "hotel",
    "longitude": 81.6257,
    "latitude": 28.0483,
    "cost_per_night": 5500,
    "images": ["hotel_9.webp", "hotel_9.webp", "hotel_9.webp"]
  },
  {
    "name": "Bageshwori Guest House",
    "description": "Close to Bageshwori Temple, this guest house caters to pilgrims and spiritual travelers.",
    "full_address": "Banke, Nepalgunj-10",
    "city": "Nepalgunj",
    "accommodation_category": "motel",
    "longitude": 81.6305,
    "latitude": 28.0509,
    "cost_per_night": 1800,
    "images": ["motel_8.webp", "motel_3.webp"]
  },
  {
    "name": "Peace Homestay",
    "description": "Quiet family home turned homestay, perfect for relaxed and affordable stays.",
    "full_address": "New Road, Nepalgunj",
    "city": "Nepalgunj",
    "accommodation_category": "homestay",
    "longitude": 81.6282,
    "latitude": 28.0471,
    "cost_per_night": 1200,
    "images": ["homestay_5.webp", "homestay_6.webp", "homestay_4.webp"]
  },
  {
    "name": "Hotel CG Retreat",
    "description": "Elegant hotel located near the CG Temple, offering great service and a scenic temple view.",
    "full_address": "Devchuli, Gaindakot-2",
    "city": "Gaindakot",
    "accommodation_category": "hotel",
    "longitude": 84.2477,
    "latitude": 27.6862,
    "cost_per_night": 4000,
    "images": ["hotel_7.webp", "hotel_4.webp"]
  },
  {
    "name": "Gaindakot Hill Resort",
    "description": "Resort nestled in the forest trails, ideal for viewpoint hikes and peace seekers.",
    "full_address": "Hilltop Road, Gaindakot",
    "city": "Gaindakot",
    "accommodation_category": "resort",
    "longitude": 84.2519,
    "latitude": 27.6899,
    "cost_per_night": 4800,
    "images": ["resort_6.webp"]
  },
  {
    "name": "Temple View Homestay",
    "description": "Homely stay offering cultural experiences and views of CG Temple from the terrace.",
    "full_address": "CG Chowk, Gaindakot",
    "city": "Gaindakot",
    "accommodation_category": "homestay",
    "longitude": 84.2505,
    "latitude": 27.6855,
    "cost_per_night": 1400,
    "images": ["homestay_8.webp", "homestay_9.webp"]
  },
  {
    "name": "Evergreen Hotel",
    "description": "Popular hotel in Hetauda with good connectivity and facilities for short business or leisure stays.",
    "full_address": "Main Road, Hetauda-5",
    "city": "Hetauda",
    "accommodation_category": "hotel",
    "longitude": 85.0309,
    "latitude": 27.4323,
    "cost_per_night": 2800,
    "images": ["hotel_4.webp", "hotel_5.webp"]
  },
  {
    "name": "Martyr\u2019s Garden Resort",
    "description": "Scenic resort surrounded by greenery and near the Martyr\u2019s Memorial Park.",
    "full_address": "Makwanpur Heights, Hetauda",
    "city": "Hetauda",
    "accommodation_category": "resort",
    "longitude": 85.0351,
    "latitude": 27.4287,
    "cost_per_night": 4500,
    "images": ["resort_6.webp", "resort_1.webp"]
  },
  {
    "name": "Hetauda Homestay",
    "description": "Friendly homestay near the forest edge, great for morning walks and short hikes.",
    "full_address": "Ward 9, Hetauda",
    "city": "Hetauda",
    "accommodation_category": "homestay",
    "longitude": 85.0295,
    "latitude": 27.4301,
    "cost_per_night": 1300,
    "images": ["homestay_4.webp"]
  }
]
